[
    {
        "name" : "Bob",
        "safe" : false,
        "reasons" : ["quality"],
        "location": {
            "lat" : -41.76508843676791,
            "lng" : 172.38676220887947
        }
    },
    {
        "name" : "Bubu",
        "safe" : true,
        "reasons"  : [],
        "location" : {
            "lat" : -46.237277570106414,
            "lng" : 169.7479876011024
        }
    },
    {
        "name" : "Bubebu?",
        "safe" : true,
        "reasons"  : [],
        "location" : {
            "lat" : -44.16825453968301,
            "lng" : 170.94168865655413
        }
    },
    {
        "name" : "YoloSwim!!",
        "safe" : false,
        "reasons"  : ["chemicals"],
        "location" : {
            "lat" : -39.786877359146,
            "lng" : 175.14255110689265
        }
    },
    {
        "name" : "HackFestLake!!",
        "safe" : false,
        "reasons"  : ["mentors"],
        "location" : {
            "lat" : -40.43534838,
            "lng" : 175.46978908
        }
    }
]